City_ID,City,Country,Date,Lat,Lng,Max Temp,Humidity,Cloudiness,Wind Speed,Current Description
0,Saldanha,ZA,2022-03-29 16:53:02,-33.0117,17.9442,68.05,80,64,7.56,broken clouds
1,Mahebourg,MU,2022-03-29 16:53:03,-20.4081,57.7,79.09,78,40,3.44,scattered clouds
2,Punta Arenas,CL,2022-03-29 16:53:03,-53.15,-70.9167,44.71,57,75,14.97,broken clouds
3,Parana,AR,2022-03-29 16:53:04,-31.732,-60.5238,90.57,57,71,8.57,broken clouds
4,Rikitea,PF,2022-03-29 16:53:04,-23.1203,-134.9692,77.27,70,56,3.76,broken clouds
5,Kuching,MY,2022-03-29 16:53:05,1.55,110.3333,79.02,94,20,3.44,few clouds
6,Port Alfred,ZA,2022-03-29 16:53:05,-33.5906,26.891,72.18,79,88,4.0,overcast clouds
7,Saskylakh,RU,2022-03-29 16:53:05,71.9167,114.0833,-28.39,100,95,3.91,overcast clouds
8,Kavaratti,IN,2022-03-29 16:53:06,10.5669,72.642,83.8,75,15,8.5,few clouds
9,Busselton,AU,2022-03-29 16:53:06,-33.65,115.3333,66.6,78,84,16.04,broken clouds
10,Port Blair,IN,2022-03-29 16:53:06,11.6667,92.75,80.64,94,40,2.3,mist
11,Bluff,NZ,2022-03-29 16:53:07,-46.6,168.3333,54.97,91,7,5.93,clear sky
12,Ilulissat,GL,2022-03-29 16:53:07,69.2167,-51.1,29.84,81,34,4.32,scattered clouds
13,Malanje,AO,2022-03-29 16:53:08,-9.5402,16.341,67.91,90,91,0.47,light rain
14,Carnarvon,AU,2022-03-29 16:53:08,-24.8667,113.6333,75.27,88,75,6.91,broken clouds
15,Thompson,CA,2022-03-29 16:49:45,55.7435,-97.8558,21.36,79,100,5.75,overcast clouds
16,Cape Town,ZA,2022-03-29 16:53:01,-33.9258,18.4232,66.61,75,20,17.27,few clouds
17,Puerto Ayora,EC,2022-03-29 16:53:09,-0.7393,-90.3518,84.16,90,46,5.01,scattered clouds
18,Tasiilaq,GL,2022-03-29 16:53:09,65.6145,-37.6368,25.32,74,100,15.86,overcast clouds
19,Quatre Cocos,MU,2022-03-29 16:53:09,-20.2078,57.7625,78.91,74,34,7.81,scattered clouds
20,Vizinga,RU,2022-03-29 16:53:09,61.0749,50.1031,15.84,96,100,2.33,overcast clouds
21,Vaini,TO,2022-03-29 16:53:10,-21.2,-175.2,73.56,88,20,5.75,few clouds
22,Anadyr,RU,2022-03-29 16:53:10,64.75,177.4833,-8.9,83,0,4.47,clear sky
23,Rio Gallegos,AR,2022-03-29 16:53:10,-51.6226,-69.2181,48.25,46,75,28.77,broken clouds
24,Sattahip,TH,2022-03-29 16:53:11,12.6664,100.9007,86.99,83,20,8.05,few clouds
25,Ostrovnoy,RU,2022-03-29 16:53:11,68.0531,39.5131,18.97,89,100,5.82,overcast clouds
26,Ust-Tsilma,RU,2022-03-29 16:53:11,65.441,52.1498,12.06,94,100,4.21,overcast clouds
27,Hermanus,ZA,2022-03-29 16:53:12,-34.4187,19.2345,68.81,79,71,17.63,broken clouds
28,Ushuaia,AR,2022-03-29 16:53:12,-54.8,-68.3,42.46,70,75,28.77,broken clouds
29,Magalia,US,2022-03-29 16:53:12,39.8121,-121.5783,58.12,72,1,1.01,clear sky
30,Chapayevka,UA,2022-03-29 16:53:12,47.4711,36.3451,46.36,77,100,16.4,overcast clouds
31,Port Hardy,CA,2022-03-29 16:53:13,50.6996,-127.4199,44.6,100,75,4.61,broken clouds
32,Gazimurskiy Zavod,RU,2022-03-29 16:53:13,51.5461,118.3266,2.95,90,28,2.01,scattered clouds
33,Belaya Gora,RU,2022-03-29 16:53:13,68.5333,146.4167,-16.44,100,14,1.5,few clouds
34,Atuona,PF,2022-03-29 16:53:14,-9.8,-139.0333,78.91,79,100,17.0,overcast clouds
35,Nome,US,2022-03-29 16:53:14,64.5011,-165.4064,13.1,82,68,5.57,broken clouds
36,Saint-Philippe,RE,2022-03-29 16:53:15,-21.3585,55.7679,76.59,86,100,7.92,overcast clouds
37,Khatanga,RU,2022-03-29 16:53:15,71.9667,102.5,-27.2,100,24,3.0,few clouds
38,Lagos,NG,2022-03-29 16:53:16,6.5833,3.75,91.72,65,48,8.99,scattered clouds
39,Doka,SD,2022-03-29 16:53:16,13.5167,35.7667,94.8,15,53,6.78,broken clouds
40,Qaanaaq,GL,2022-03-29 16:54:17,77.484,-69.3632,13.39,91,100,1.79,overcast clouds
41,Kavieng,PG,2022-03-29 16:54:17,-2.5744,150.7967,81.79,77,24,6.22,few clouds
42,Zyryanka,RU,2022-03-29 16:54:17,65.75,150.85,-8.59,99,99,9.33,overcast clouds
43,Koulamoutou,GA,2022-03-29 16:54:18,-1.1303,12.4736,77.05,84,94,2.51,light rain
44,Albany,US,2022-03-29 16:54:18,42.6001,-73.9662,33.17,40,78,5.01,broken clouds
45,Fortuna,US,2022-03-29 16:54:19,40.5982,-124.1573,51.66,95,100,6.91,overcast clouds
46,Gao,ML,2022-03-29 16:54:19,16.6362,1.637,97.05,3,28,14.61,scattered clouds
47,Mataura,NZ,2022-03-29 16:54:19,-46.1927,168.8643,50.11,99,12,0.92,few clouds
48,Opuwo,NA,2022-03-29 16:54:20,-18.0607,13.84,79.88,31,37,5.88,scattered clouds
49,Maldonado,UY,2022-03-29 16:54:20,-34.6667,-54.9167,83.59,30,2,15.61,clear sky
50,Hobart,AU,2022-03-29 16:54:20,-42.8794,147.3294,59.25,86,100,3.0,overcast clouds
51,Victoria,HK,2022-03-29 16:50:01,22.2855,114.1577,70.18,87,100,3.0,overcast clouds
52,Bud,US,2022-03-29 16:54:21,39.447,-86.1758,40.41,52,100,13.8,overcast clouds
53,Nizwa,OM,2022-03-29 16:54:21,22.9333,57.5333,79.65,20,0,7.54,clear sky
54,Upernavik,GL,2022-03-29 16:54:22,72.7868,-56.1549,23.22,78,72,3.02,broken clouds
55,Visby,SE,2022-03-29 16:54:22,57.6409,18.296,32.05,64,20,9.22,few clouds
56,Iguape,BR,2022-03-29 16:54:22,-24.7081,-47.5553,76.3,80,93,6.58,overcast clouds
57,Calama,CL,2022-03-29 16:54:23,-22.4667,-68.9333,72.09,16,0,10.36,clear sky
58,Meulaboh,ID,2022-03-29 16:54:23,4.1363,96.1285,79.2,76,97,0.67,overcast clouds
59,Butaritari,KI,2022-03-29 16:54:23,3.0707,172.7902,80.91,71,34,12.82,scattered clouds
60,Nelson,NZ,2022-03-29 16:49:45,-41.2833,173.2833,59.29,89,60,1.01,broken clouds
61,Cabo San Lucas,MX,2022-03-29 16:54:24,22.8909,-109.9124,84.18,41,70,7.96,broken clouds
62,Erzin,TR,2022-03-29 16:54:24,36.9559,36.2,57.69,55,100,5.28,overcast clouds
63,Avarua,CK,2022-03-29 16:54:24,-21.2078,-159.775,75.25,100,20,2.3,few clouds
64,Severo-Kurilsk,RU,2022-03-29 16:54:25,50.6789,156.125,28.38,69,83,20.18,broken clouds
65,Grindavik,IS,2022-03-29 16:54:25,63.8424,-22.4338,39.67,75,75,19.57,broken clouds
66,Longyearbyen,SJ,2022-03-29 16:54:25,78.2186,15.6401,15.64,53,0,16.11,clear sky
67,Constitucion,CL,2022-03-29 16:54:26,-35.3333,-72.4167,64.26,46,0,18.39,clear sky
68,Los Arabos,CU,2022-03-29 16:54:26,22.7281,-80.7214,86.02,30,28,16.49,moderate rain
69,Shujalpur,IN,2022-03-29 16:54:26,23.4,76.7167,84.43,13,0,6.15,clear sky
70,Dymytrove,UA,2022-03-29 16:54:27,48.6077,32.9835,52.97,53,92,16.69,overcast clouds
71,Ribeira Grande,PT,2022-03-29 16:54:27,38.5167,-28.7,70.2,73,40,9.22,scattered clouds
72,Flinders,AU,2022-03-29 16:54:27,-34.5833,150.8552,67.28,94,100,5.99,overcast clouds
73,Acarau,BR,2022-03-29 16:54:27,-2.8856,-40.12,79.34,85,100,10.65,overcast clouds
74,Paita,PE,2022-03-29 16:54:28,-5.0892,-81.1144,79.03,66,75,11.01,broken clouds
75,Karacakoy,TR,2022-03-29 16:54:28,41.4029,28.3834,58.84,68,100,8.48,overcast clouds
76,Ostersund,SE,2022-03-29 16:52:28,63.1792,14.6357,28.85,37,0,12.66,clear sky
77,Broome,US,2022-03-29 16:54:29,42.2506,-75.833,29.01,59,100,10.0,overcast clouds
78,Hofn,IS,2022-03-29 16:54:29,64.2539,-15.2082,32.94,58,24,7.94,few clouds
79,Los Llanos De Aridane,ES,2022-03-29 16:54:29,28.6585,-17.9182,66.13,72,40,13.8,scattered clouds
80,Aklavik,CA,2022-03-29 16:54:30,68.2191,-135.0107,-14.17,99,100,5.99,overcast clouds
81,La Romana,DO,2022-03-29 16:54:30,18.4273,-68.9728,84.56,61,75,9.22,broken clouds
82,Terenos,BR,2022-03-29 16:52:11,-20.4422,-54.8603,91.11,48,40,10.36,scattered clouds
83,Alice Springs,AU,2022-03-29 16:54:03,-23.7,133.8833,69.22,32,23,4.61,few clouds
84,Mar Del Plata,AR,2022-03-29 16:54:46,-38.0023,-57.5575,66.22,74,100,10.36,overcast clouds
85,Barrow,US,2022-03-29 16:55:30,71.2906,-156.7887,-18.99,97,72,16.42,broken clouds
86,Hithadhoo,MV,2022-03-29 16:55:31,-0.6,73.0833,82.53,65,2,5.46,clear sky
87,Pipri,IN,2022-03-29 16:55:31,19.8,75.5333,87.96,16,0,9.06,clear sky
88,Marzuq,YE,2022-03-29 16:55:31,14.4,46.4667,70.52,24,0,1.45,clear sky
89,Georgetown,MY,2022-03-29 16:55:32,5.4112,100.3354,84.13,87,40,8.05,scattered clouds
90,Jiexiu,CN,2022-03-29 16:55:32,37.0244,111.9125,53.35,29,40,3.06,scattered clouds
91,Marawi,PH,2022-03-29 16:55:32,7.9986,124.2928,67.46,92,99,2.1,overcast clouds
92,Otjimbingwe,NA,2022-03-29 16:55:33,-22.35,16.1333,80.31,43,48,10.29,scattered clouds
93,Port Elizabeth,ZA,2022-03-29 16:55:33,-33.918,25.5701,70.11,95,20,10.36,light intensity shower rain
94,Callaway,US,2022-03-29 16:55:33,30.153,-85.5699,80.98,70,75,6.91,broken clouds
95,Nivala,FI,2022-03-29 16:55:33,63.9167,24.9667,22.68,95,100,8.39,light snow
96,Yellowknife,CA,2022-03-29 16:55:34,62.456,-114.3525,11.41,94,75,9.22,broken clouds
97,Luderitz,NA,2022-03-29 16:55:34,-26.6481,15.1594,65.08,79,47,12.17,scattered clouds
98,Aksarayskiy,RU,2022-03-29 16:55:34,46.7924,48.0119,46.04,51,22,15.99,few clouds
99,Provideniya,RU,2022-03-29 16:55:34,64.3833,-173.3,0.27,81,6,7.85,clear sky
100,Staszow,PL,2022-03-29 16:55:35,50.5631,21.1659,52.63,63,100,6.29,overcast clouds
101,Aswan,EG,2022-03-29 16:55:35,24.0934,32.907,90.7,12,0,8.05,dust
102,Ambon,ID,2022-03-29 16:55:36,-3.6954,128.1814,77.14,94,40,4.61,light rain
103,Iberia,US,2022-03-29 16:52:52,29.9502,-91.7507,80.06,65,75,14.97,broken clouds
104,Obo,CF,2022-03-29 16:55:36,5.3998,26.4869,82.71,22,41,2.86,scattered clouds
105,Palmas,BR,2022-03-29 16:55:36,-10.2128,-48.3603,73.27,100,75,5.75,heavy intensity rain
106,Baykit,RU,2022-03-29 16:55:36,61.67,96.37,6.64,99,96,1.39,overcast clouds
107,Soyo,AO,2022-03-29 16:55:37,-6.1349,12.3689,77.4,82,100,6.58,overcast clouds
108,Codrington,AU,2022-03-29 16:55:37,-38.2667,141.9667,58.68,63,99,11.18,overcast clouds
109,Aberystwyth,GB,2022-03-29 16:55:38,52.4155,-4.0829,56.71,77,87,4.21,overcast clouds
110,Shahpur,IN,2022-03-29 16:55:38,16.7,76.8333,91.09,19,1,4.79,clear sky
111,San Jose,US,2022-03-29 16:53:30,37.3394,-121.895,57.85,76,75,1.99,broken clouds
112,Pauini,BR,2022-03-29 16:55:38,-7.7136,-66.9764,81.41,84,100,3.49,light rain
113,Hasaki,JP,2022-03-29 16:55:38,35.7333,140.8333,48.6,84,100,13.71,overcast clouds
114,Tagusao,PH,2022-03-29 16:55:39,9.1924,117.8141,78.28,86,99,6.4,overcast clouds
115,Talnakh,RU,2022-03-29 16:55:39,69.4865,88.3972,24.21,94,100,12.37,light snow
116,Natal,BR,2022-03-29 16:55:39,-5.795,-35.2094,88.45,62,40,18.41,moderate rain
117,Bredasdorp,ZA,2022-03-29 16:55:40,-34.5322,20.0403,65.34,71,100,12.08,overcast clouds
118,Chuy,UY,2022-03-29 16:55:40,-33.6971,-53.4616,84.33,36,0,10.0,clear sky
119,Jamestown,US,2022-03-29 16:55:40,42.097,-79.2353,32.52,49,40,13.8,snow
120,Benemerito De Las Americas,MX,2022-03-29 16:55:41,16.5167,-90.6439,85.46,52,62,4.16,broken clouds
121,Chifeng,CN,2022-03-29 16:55:41,42.2683,118.9636,33.87,58,94,10.54,overcast clouds
122,Kloulklubed,PW,2022-03-29 16:55:41,7.0419,134.2556,82.65,76,59,15.21,broken clouds
123,Namibe,AO,2022-03-29 16:55:41,-15.1961,12.1522,73.08,71,98,17.36,overcast clouds
124,Kodiak,US,2022-03-29 16:55:42,57.79,-152.4072,35.11,93,100,4.61,light rain
125,Ahipara,NZ,2022-03-29 16:55:42,-35.1667,173.1667,61.47,91,5,6.51,clear sky
126,Ilebo,CD,2022-03-29 16:55:42,-4.3167,20.5833,74.68,83,57,3.49,broken clouds
127,Togur,RU,2022-03-29 16:55:42,58.3631,82.8265,31.28,94,100,7.92,overcast clouds
128,Yamada,JP,2022-03-29 16:55:43,39.4667,141.95,39.6,90,3,7.34,clear sky
129,Kingisepp,RU,2022-03-29 16:55:43,59.3733,28.6134,18.81,88,98,2.59,overcast clouds
130,Saint George,US,2022-03-29 16:51:31,37.1041,-113.5841,53.64,81,100,4.0,overcast clouds
131,Chokurdakh,RU,2022-03-29 16:56:43,70.6333,147.9167,-18.38,94,7,2.13,clear sky
132,Puerto Escondido,MX,2022-03-29 16:56:44,15.85,-97.0667,86.41,50,6,8.32,clear sky
133,Ancud,CL,2022-03-29 16:56:44,-41.8697,-73.8203,53.22,53,5,14.56,clear sky
134,Lasa,IT,2022-03-29 16:56:44,46.6166,10.7002,55.69,86,100,2.3,overcast clouds
135,Nishihara,JP,2022-03-29 16:56:45,26.1842,127.7558,70.88,88,75,12.66,broken clouds
136,Vila Velha,BR,2022-03-29 16:56:45,-20.3297,-40.2925,87.75,74,40,11.5,scattered clouds
137,Cherskiy,RU,2022-03-29 16:56:45,68.75,161.3,-6.72,86,99,2.51,overcast clouds
138,Sitka,US,2022-03-29 16:56:45,57.0531,-135.33,37.96,89,100,5.55,overcast clouds
139,Honiara,SB,2022-03-29 16:56:46,-9.4333,159.95,78.17,87,96,3.4,overcast clouds
140,Padre Bernardo,BR,2022-03-29 16:56:46,-15.35,-48.5,88.88,36,95,4.83,overcast clouds
141,Baruun-Urt,MN,2022-03-29 16:56:46,46.6806,113.2792,20.37,32,22,5.06,few clouds
142,Sao Joao Da Barra,BR,2022-03-29 16:56:47,-21.6403,-41.0511,87.89,72,92,9.75,overcast clouds
143,Nikolskoye,RU,2022-03-29 16:56:47,59.7035,30.7861,24.8,84,98,6.53,overcast clouds
144,Bida,NG,2022-03-29 16:56:47,9.0833,6.0167,101.17,19,28,3.8,scattered clouds
145,Dikson,RU,2022-03-29 16:56:47,73.5069,80.5464,11.68,94,100,11.81,light snow
146,Esperance,AU,2022-03-29 16:56:48,-33.8667,121.9,60.64,78,99,12.57,overcast clouds
147,Hilo,US,2022-03-29 16:53:06,19.7297,-155.09,68.25,81,100,3.0,overcast clouds
148,Dukat,RU,2022-03-29 16:56:48,62.55,155.55,-0.17,98,100,3.98,overcast clouds
149,Touros,BR,2022-03-29 16:56:49,-5.1989,-35.4608,86.45,62,98,15.37,moderate rain
150,Kapaa,US,2022-03-29 16:52:48,22.0752,-159.319,69.19,81,20,9.22,light rain
151,Vardo,NO,2022-03-29 16:56:49,70.3705,31.1107,28.38,80,75,24.16,light shower snow
152,Luganville,VU,2022-03-29 16:56:50,-15.5333,167.1667,78.37,88,100,2.37,overcast clouds
153,Roebourne,AU,2022-03-29 16:56:50,-20.7833,117.1333,83.89,67,87,5.1,overcast clouds
154,Tuktoyaktuk,CA,2022-03-29 16:56:50,69.4541,-133.0374,-23.8,76,0,6.91,clear sky
155,Qasigiannguit,GL,2022-03-29 16:56:51,68.8193,-51.1922,23.29,86,30,3.2,scattered clouds
156,Takoradi,GH,2022-03-29 16:56:51,4.8845,-1.7554,84.42,75,54,12.91,broken clouds
157,Nakusp,CA,2022-03-29 16:56:51,50.2499,-117.8023,41.47,100,52,2.3,broken clouds
158,Poum,NC,2022-03-29 16:56:52,-20.2333,164.0167,81.14,83,98,20.04,overcast clouds
159,Atar,MR,2022-03-29 16:56:52,20.5169,-13.0499,92.14,12,17,12.82,few clouds
160,Arraial Do Cabo,BR,2022-03-29 16:56:52,-22.9661,-42.0278,80.56,83,75,12.66,broken clouds
161,Namatanai,PG,2022-03-29 16:56:52,-3.6667,152.4333,80.55,79,68,8.41,broken clouds
162,Porbandar,IN,2022-03-29 16:56:53,21.6422,69.6093,80.4,70,0,8.7,clear sky
163,Roald,NO,2022-03-29 16:56:53,62.5833,6.1333,34.72,93,40,5.75,scattered clouds
164,Fort Nelson,CA,2022-03-29 16:56:54,58.8053,-122.7002,24.39,68,100,3.44,overcast clouds
165,Matara,LK,2022-03-29 16:56:54,5.9485,80.5353,77.81,87,51,3.13,broken clouds
166,Hansi,IN,2022-03-29 16:56:54,29.1,75.9667,85.48,9,0,6.8,clear sky
167,New Norfolk,AU,2022-03-29 16:56:55,-42.7826,147.0587,58.91,57,100,1.99,overcast clouds
168,Maryborough,AU,2022-03-29 16:56:56,-25.5333,152.7,69.12,87,1,5.5,clear sky
169,Mazyr,BY,2022-03-29 16:56:56,52.0495,29.2456,43.52,69,99,6.44,overcast clouds
170,Vila Franca Do Campo,PT,2022-03-29 16:53:20,37.7167,-25.4333,61.21,94,98,7.25,overcast clouds
171,Berbera,SO,2022-03-29 16:56:56,10.4396,45.0143,79.97,66,48,3.85,scattered clouds
172,Kuchinarai,TH,2022-03-29 16:56:56,16.541,104.05,79.77,68,18,3.78,few clouds
173,Altay,CN,2022-03-29 16:56:57,47.8667,88.1167,26.35,67,71,6.87,broken clouds
174,Ponta Do Sol,PT,2022-03-29 16:56:57,32.6667,-17.1,70.72,70,3,4.76,clear sky
175,Klaksvik,FO,2022-03-29 16:56:57,62.2266,-6.589,36.52,49,100,19.8,overcast clouds
176,Narsaq,GL,2022-03-29 16:56:58,60.9167,-46.05,34.68,63,36,3.22,scattered clouds
177,Bambous Virieux,MU,2022-03-29 16:56:58,-20.3428,57.7575,79.05,78,40,3.44,scattered clouds
178,Nanortalik,GL,2022-03-29 16:56:58,60.1432,-45.2371,32.81,75,48,4.27,scattered clouds
179,Faya,SA,2022-03-29 16:57:58,18.3851,42.4509,68.11,26,1,0.94,clear sky
180,Torbay,CA,2022-03-29 16:57:59,47.6666,-52.7314,41.77,79,100,6.91,overcast clouds
181,Clyde River,CA,2022-03-29 16:57:59,70.4692,-68.5914,5.23,85,20,8.05,few clouds
182,Christchurch,NZ,2022-03-29 16:53:18,-43.5333,172.6333,58.95,87,20,3.44,light rain
183,Tura,IN,2022-03-29 16:57:59,25.5198,90.2201,74.35,51,63,4.54,broken clouds
184,Uyar,RU,2022-03-29 16:58:00,55.81,94.3153,13.28,94,65,3.27,broken clouds
185,Zhuanghe,CN,2022-03-29 16:58:00,39.7008,122.9911,42.24,93,100,7.29,overcast clouds
186,Tautira,PF,2022-03-29 16:58:00,-17.7333,-149.15,81.27,75,27,15.73,scattered clouds
187,Itoman,JP,2022-03-29 16:58:01,26.1247,127.6694,71.62,88,75,12.66,broken clouds
188,Neepawa,CA,2022-03-29 16:58:01,50.2289,-99.4664,34.2,89,100,3.67,light snow
189,Banepa,NP,2022-03-29 16:58:01,27.6298,85.5214,64.72,88,40,4.61,mist
190,Rawson,AR,2022-03-29 16:55:40,-43.3002,-65.1023,56.75,34,60,34.99,broken clouds
191,Tiksi,RU,2022-03-29 16:58:02,71.6872,128.8694,-1.25,96,100,5.23,overcast clouds
192,Ouadda,CF,2022-03-29 16:58:03,8.0777,22.4007,85.59,13,36,4.14,scattered clouds
193,Hambantota,LK,2022-03-29 16:58:03,6.1241,81.1185,80.24,80,46,3.78,scattered clouds
194,Rocha,UY,2022-03-29 16:58:03,-34.4833,-54.3333,85.12,32,0,14.41,clear sky
195,Coos Bay,US,2022-03-29 16:56:10,43.3665,-124.2179,52.32,91,100,9.22,overcast clouds
196,Cabinda,AO,2022-03-29 16:58:04,-5.55,12.2,77.14,94,75,6.91,broken clouds
197,Chulym,RU,2022-03-29 16:58:04,55.0997,80.9572,31.41,92,97,12.62,overcast clouds
198,Banjar,ID,2022-03-29 16:58:04,-8.19,114.9675,76.77,88,74,5.23,broken clouds
199,Casper,US,2022-03-29 16:55:04,42.8666,-106.3131,39.61,94,100,18.75,overcast clouds
200,Ransang,PH,2022-03-29 16:58:05,8.9603,117.5828,77.61,86,100,3.29,overcast clouds
201,Bonavista,CA,2022-03-29 16:58:05,48.6499,-53.1147,36.14,76,91,8.39,overcast clouds
202,Beringovskiy,RU,2022-03-29 16:58:06,63.05,179.3167,-3.32,98,100,10.98,overcast clouds
203,Ketchikan,US,2022-03-29 16:58:06,55.3422,-131.6461,38.05,98,100,6.58,moderate rain
204,Nagapattinam,IN,2022-03-29 16:58:07,10.7667,79.8333,82.49,83,0,10.65,clear sky
205,Sauda,NO,2022-03-29 16:58:07,59.6506,6.3542,40.68,72,44,2.17,scattered clouds
206,Guerrero Negro,MX,2022-03-29 16:58:07,27.9769,-114.0611,66.18,62,1,16.82,clear sky
207,Pedernales,DO,2022-03-29 16:58:08,18.0384,-71.744,80.29,71,78,8.48,broken clouds
208,Karratha,AU,2022-03-29 16:58:08,-20.7377,116.8463,84.25,67,92,4.94,overcast clouds
209,Japura,ID,2022-03-29 16:58:08,-0.3167,102.35,75.11,94,93,0.51,overcast clouds
210,Sisimiut,GL,2022-03-29 16:58:09,66.9395,-53.6735,26.56,85,36,7.36,scattered clouds
211,San Rafael Del Sur,NI,2022-03-29 16:58:09,11.8485,-86.4384,88.77,42,79,15.37,broken clouds
212,Druzhba,UA,2022-03-29 16:58:09,52.0428,33.9453,44.53,67,97,8.5,overcast clouds
213,Phan Thiet,VN,2022-03-29 16:58:10,10.9333,108.1,77.88,83,84,2.86,broken clouds
214,Mandalgovi,MN,2022-03-29 16:58:10,45.7625,106.2708,26.62,37,60,5.48,broken clouds
215,Lismore,AU,2022-03-29 16:58:10,-28.8135,153.2773,71.49,99,100,10.0,heavy intensity rain
216,Naryan-Mar,RU,2022-03-29 16:58:10,67.6713,53.087,3.4,92,89,7.54,overcast clouds
217,Port-Gentil,GA,2022-03-29 16:58:11,-0.7193,8.7815,82.36,74,75,9.22,broken clouds
218,Lebu,CL,2022-03-29 16:58:11,-37.6167,-73.65,57.33,52,14,16.4,few clouds
219,Villamontes,BO,2022-03-29 16:58:11,-21.25,-63.5,94.44,43,4,5.75,clear sky
220,Airai,TL,2022-03-29 16:59:12,-8.9266,125.4092,60.12,95,99,0.34,overcast clouds
221,Pointe Michel,DM,2022-03-29 16:59:12,15.25,-61.3833,86.94,45,20,12.66,few clouds
222,Pevek,RU,2022-03-29 16:59:13,69.7008,170.3133,-19.8,95,51,2.82,broken clouds
223,Qaqortoq,GL,2022-03-29 16:59:13,60.7167,-46.0333,33.26,63,35,4.07,scattered clouds
224,Tarbagatay,RU,2022-03-29 16:59:13,51.4803,107.3602,15.33,91,3,1.66,clear sky
225,Galesong,ID,2022-03-29 16:59:14,-5.3166,119.3661,73.42,79,87,2.71,overcast clouds
226,Guangyuan,CN,2022-03-29 16:59:14,32.442,105.823,58.24,75,98,3.31,overcast clouds
227,Aykhal,RU,2022-03-29 16:59:14,66.0,111.5,-7.33,100,100,5.23,overcast clouds
228,Eydhafushi,MV,2022-03-29 16:59:15,5.1033,73.0708,82.87,68,3,1.79,clear sky
229,Aviles,ES,2022-03-29 16:54:38,43.5547,-5.9248,56.77,78,75,8.05,broken clouds
230,Abonnema,NG,2022-03-29 16:59:15,4.7084,6.7931,86.72,64,53,12.73,light rain
231,Wad Rawah,SD,2022-03-29 16:59:16,15.1603,33.1397,92.73,15,2,10.58,clear sky
232,Tahlequah,US,2022-03-29 16:59:16,35.9154,-94.97,71.82,49,0,10.36,clear sky
233,Souillac,MU,2022-03-29 16:59:16,-20.5167,57.5167,79.18,78,40,3.44,scattered clouds
234,Jatibonico,CU,2022-03-29 16:59:17,21.9419,-79.17,85.82,33,88,15.93,overcast clouds
235,Sao Filipe,CV,2022-03-29 16:59:17,14.8961,-24.4956,71.29,76,3,17.34,clear sky
236,Samana,DO,2022-03-29 16:59:18,19.2056,-69.3369,80.82,83,75,0.0,broken clouds
237,Sola,VU,2022-03-29 16:59:18,-13.8833,167.55,77.79,89,100,9.62,overcast clouds
238,Zimmi,SL,2022-03-29 16:59:18,7.3153,-11.3061,84.7,63,100,7.0,light rain
239,Muros,ES,2022-03-29 16:59:19,42.7762,-9.0603,59.09,73,100,13.62,overcast clouds
240,Kronshagen,DE,2022-03-29 16:59:19,54.3433,10.0994,44.62,49,100,11.5,overcast clouds
241,Tuatapere,NZ,2022-03-29 16:59:19,-46.1333,167.6833,52.54,94,6,2.95,clear sky
242,Boende,CD,2022-03-29 16:59:20,-0.2167,20.8667,74.88,76,95,3.13,overcast clouds
243,Begowala,PK,2022-03-29 16:59:20,32.4376,74.2682,75.29,16,0,3.29,clear sky
244,Pimentel,PE,2022-03-29 16:59:20,-6.8367,-79.9342,80.89,61,0,9.22,clear sky
245,Riberalta,BO,2022-03-29 16:59:21,-10.9833,-66.1,88.0,70,75,9.22,broken clouds
246,San Quintin,MX,2022-03-29 16:59:21,30.4833,-115.95,60.71,71,18,13.42,few clouds
247,Arman,RU,2022-03-29 16:59:22,59.7,150.1667,7.02,78,100,8.3,overcast clouds
248,Kyzyl-Suu,KG,2022-03-29 16:59:22,42.3414,78.0056,31.93,97,96,7.11,snow
249,Magadi,IN,2022-03-29 16:59:22,12.9667,77.2333,87.39,50,100,8.59,overcast clouds
250,Kongolo,CD,2022-03-29 16:59:23,-5.3833,27.0,70.25,97,100,3.11,overcast clouds
251,Kanniyakumari,IN,2022-03-29 16:59:23,8.0833,77.5667,83.03,77,8,11.48,clear sky
252,San Cristobal,VE,2022-03-29 16:59:23,7.7669,-72.225,75.38,65,100,6.2,overcast clouds
253,Mazagao,BR,2022-03-29 16:59:24,-0.115,-51.2894,84.25,98,100,0.96,overcast clouds
254,Lavrentiya,RU,2022-03-29 16:59:24,65.5833,-171.0,-8.84,93,29,6.76,scattered clouds
255,Jizan,SA,2022-03-29 16:59:24,17.3333,42.6667,85.14,41,5,3.44,clear sky
256,Prado,BR,2022-03-29 16:59:24,-17.3411,-39.2208,83.86,63,26,8.32,scattered clouds
257,Porto Novo,BJ,2022-03-29 16:59:25,6.4965,2.6036,89.42,65,98,11.34,overcast clouds
258,Moose Jaw,CA,2022-03-29 16:59:25,50.4001,-105.5344,28.65,74,100,26.46,overcast clouds
259,East London,ZA,2022-03-29 16:59:25,-33.0153,27.9116,79.74,69,0,4.61,clear sky
260,Willowmore,ZA,2022-03-29 16:59:26,-33.2926,23.4895,75.06,30,56,10.04,broken clouds
261,Lac Du Bonnet,CA,2022-03-29 16:59:26,50.2536,-96.0612,34.25,64,98,10.13,overcast clouds
262,Nuuk,GL,2022-03-29 16:59:26,64.1835,-51.7216,23.88,92,9,8.99,clear sky
263,Cockburn Town,TC,2022-03-29 16:58:20,21.4612,-71.1419,76.71,62,15,17.87,few clouds
264,Bathsheba,BB,2022-03-29 16:59:27,13.2167,-59.5167,86.61,45,20,23.02,few clouds
265,Pervomaysk,UA,2022-03-29 16:59:27,48.0443,30.8507,56.89,38,95,8.75,overcast clouds
266,Tucuman,AR,2022-03-29 16:57:12,-26.8241,-65.2226,84.2,54,0,4.61,clear sky
267,Morondava,MG,2022-03-29 16:59:27,-20.2833,44.2833,77.77,87,9,11.7,light rain
268,Vyyezdnoye,RU,2022-03-29 17:00:28,55.3815,43.7864,19.96,93,92,2.82,overcast clouds
269,San Carlos De Bariloche,AR,2022-03-29 16:58:27,-41.1456,-71.3082,44.35,53,40,19.57,scattered clouds
270,Katherine,AU,2022-03-29 17:00:28,-14.4667,132.2667,77.32,73,71,4.61,broken clouds
271,Milkovo,RU,2022-03-29 17:00:28,54.7167,158.6167,10.96,86,86,6.53,overcast clouds
272,Wanning,CN,2022-03-29 17:00:29,18.8003,110.3967,74.26,93,47,5.97,scattered clouds
273,Biskamzha,RU,2022-03-29 17:00:29,53.4497,89.5272,23.07,96,97,3.56,overcast clouds
274,Kruisfontein,ZA,2022-03-29 17:00:29,-34.0033,24.7314,67.89,86,89,6.44,overcast clouds
275,Puerto Madero,MX,2022-03-29 17:00:30,14.7208,-92.4215,85.24,55,10,8.61,clear sky
276,Nola,IT,2022-03-29 17:00:30,40.922,14.5329,61.36,62,73,4.54,broken clouds
277,Hanna,CA,2022-03-29 17:00:30,51.6334,-111.9018,28.85,91,100,3.0,overcast clouds
278,Nabire,ID,2022-03-29 17:00:31,-3.3667,135.4833,74.8,93,100,3.58,light rain
279,Camuy,PR,2022-03-29 17:00:31,18.4838,-66.8449,84.16,73,46,10.0,scattered clouds
280,Egvekinot,RU,2022-03-29 17:00:32,66.3167,-179.1667,-10.21,85,13,13.27,few clouds
281,San Patricio,US,2022-03-29 17:00:32,28.017,-97.5169,79.18,60,94,25.59,overcast clouds
282,Iwanai,JP,2022-03-29 17:00:32,42.9744,140.5089,31.84,88,36,4.34,scattered clouds
283,Bethel,US,2022-03-29 17:00:33,41.3712,-73.414,37.49,44,0,12.66,clear sky
284,Ixtapa,MX,2022-03-29 17:00:33,20.7,-105.2,88.07,19,1,6.69,clear sky
285,Dudinka,RU,2022-03-29 17:00:33,69.4058,86.1778,26.56,95,100,16.8,light snow
286,Balikpapan,ID,2022-03-29 17:00:34,-1.2675,116.8289,77.99,94,20,2.3,few clouds
287,Zeliezovce,SK,2022-03-29 17:00:34,48.0508,18.6542,66.74,58,100,7.0,overcast clouds
288,Alofi,NU,2022-03-29 17:00:34,-19.0595,-169.9187,80.85,78,100,14.63,moderate rain
289,Jalu,LY,2022-03-29 17:00:35,29.0331,21.5482,74.91,20,0,9.48,clear sky
290,Redmond,US,2022-03-29 17:00:34,47.674,-122.1215,53.46,84,84,1.01,broken clouds
291,Vestmannaeyjar,IS,2022-03-29 17:00:35,63.4427,-20.2734,36.59,80,100,27.63,overcast clouds
292,Pitimbu,BR,2022-03-29 17:00:35,-7.4706,-34.8086,83.86,69,99,12.35,overcast clouds
293,Shenjiamen,CN,2022-03-29 17:00:36,29.9576,122.298,56.07,94,100,11.07,overcast clouds
294,Olafsvik,IS,2022-03-29 17:00:36,64.8945,-23.7142,35.87,79,96,7.38,overcast clouds
295,Yiyang,CN,2022-03-29 16:59:29,28.5892,112.3283,62.04,95,100,4.74,overcast clouds
296,Pangnirtung,CA,2022-03-29 17:00:36,66.1451,-65.7125,27.34,73,63,1.81,broken clouds
297,Beni,CD,2022-03-29 17:00:37,0.5,29.4667,64.83,98,100,1.52,light rain
298,San Ignacio,BZ,2022-03-29 17:00:37,17.1561,-89.0714,81.72,67,67,8.12,broken clouds
299,Castro,BR,2022-03-29 17:00:37,-24.7911,-50.0119,79.36,51,16,2.35,few clouds
300,Muyezerskiy,RU,2022-03-29 17:00:38,63.9333,31.65,20.93,88,100,10.42,overcast clouds
301,Arica,CL,2022-03-29 17:00:38,-18.475,-70.3042,72.82,68,39,7.29,scattered clouds
302,Palmerston,AU,2022-03-29 17:00:00,-12.486,130.9833,80.58,85,100,4.61,light rain
303,Tambo,PE,2022-03-29 17:00:38,-14.8,-73.9167,47.57,63,91,3.96,light rain
304,Maibong,IN,2022-03-29 17:00:39,25.3,93.1667,72.43,58,40,1.54,scattered clouds
305,Dong Hoi,VN,2022-03-29 17:00:39,17.4833,106.6,72.27,86,95,2.39,overcast clouds
306,Dubuque,US,2022-03-29 16:57:27,42.4833,-90.8668,37.85,37,92,18.45,overcast clouds
307,Richards Bay,ZA,2022-03-29 17:00:39,-28.783,32.0377,75.06,75,0,17.18,clear sky
308,Malakal,SS,2022-03-29 17:00:14,9.5334,31.6605,92.7,12,27,4.25,scattered clouds
309,Asosa,ET,2022-03-29 17:00:40,10.0667,34.5333,77.31,22,30,2.17,scattered clouds
310,Leningradskiy,RU,2022-03-29 17:00:40,69.3833,178.4167,-21.23,100,27,4.16,scattered clouds
311,Birr,IE,2022-03-29 17:00:40,53.0914,-7.9133,56.21,69,49,3.91,scattered clouds
312,Bjornevatn,NO,2022-03-29 16:58:20,69.6672,29.9847,25.14,86,75,16.11,broken clouds
313,Serenje,ZM,2022-03-29 17:00:40,-13.2325,30.2352,62.38,98,53,7.18,broken clouds
314,Vangaindrano,MG,2022-03-29 17:00:41,-23.35,47.6,72.52,89,40,8.5,light rain
315,Kavadarci,MK,2022-03-29 17:01:41,41.4331,22.0119,56.5,57,58,2.57,broken clouds
316,Aloleng,PH,2022-03-29 17:01:41,16.1307,119.7824,82.72,69,91,10.63,overcast clouds
317,Treinta Y Tres,UY,2022-03-29 17:01:42,-33.2333,-54.3833,87.3,33,0,15.73,clear sky
318,Lagoa,PT,2022-03-29 17:01:42,39.05,-27.9833,60.39,94,74,12.82,broken clouds
319,Dunedin,NZ,2022-03-29 17:01:42,-45.8742,170.5036,59.81,85,99,4.0,overcast clouds
320,Talaya,RU,2022-03-29 17:01:42,61.3833,152.75,-0.56,99,100,3.22,overcast clouds
321,Straumen,NO,2022-03-29 17:01:43,63.8709,11.2999,35.6,60,16,4.88,few clouds
322,Singaraja,ID,2022-03-29 17:01:43,-8.112,115.0882,79.2,80,87,4.68,overcast clouds
323,Torbat-E Jam,IR,2022-03-29 17:01:43,35.244,60.6225,45.0,52,11,6.78,few clouds
324,Huanuco,PE,2022-03-29 17:01:44,-9.9329,-76.2415,76.33,56,92,8.48,overcast clouds
325,Shetpe,KZ,2022-03-29 17:01:44,44.1667,52.1167,40.42,84,2,24.02,clear sky
326,Itirucu,BR,2022-03-29 17:01:44,-13.5317,-40.1503,77.74,60,82,6.44,broken clouds
327,Iqaluit,CA,2022-03-29 17:01:18,63.7506,-68.5145,20.7,79,97,4.76,overcast clouds
328,Xihe,CN,2022-03-29 17:01:45,31.6864,113.4659,58.96,77,55,3.83,broken clouds
329,Salaga,GH,2022-03-29 17:01:45,8.5508,-0.5188,101.95,20,97,6.58,overcast clouds
330,Chipinge,ZW,2022-03-29 17:01:45,-20.1883,32.6236,60.44,81,21,6.08,few clouds
331,Huilong,CN,2022-03-29 17:01:46,31.8111,121.655,54.93,96,99,15.35,overcast clouds
332,Kars,TR,2022-03-29 17:01:46,40.602,43.095,13.03,88,31,1.57,scattered clouds
333,Monster,NL,2022-03-29 17:01:46,52.0258,4.175,54.99,67,57,5.99,broken clouds
334,Korla,CN,2022-03-29 17:00:29,41.7597,86.1469,54.25,27,100,7.72,overcast clouds
335,Kidal,ML,2022-03-29 17:01:22,18.4411,1.4078,96.1,4,2,14.0,clear sky
336,Taoudenni,ML,2022-03-29 17:01:47,22.6783,-3.9836,103.89,5,23,16.02,few clouds
337,Redwater,US,2022-03-29 17:01:47,33.3582,-94.2544,75.22,72,100,10.49,overcast clouds
338,Athabasca,CA,2022-03-29 17:01:47,54.7169,-113.2854,33.71,84,24,8.59,few clouds
339,Beyneu,KZ,2022-03-29 17:01:48,45.3167,55.2,41.97,61,1,12.06,clear sky
340,Carmarthen,GB,2022-03-29 17:01:48,51.8555,-4.3054,54.9,86,98,3.18,overcast clouds
341,Vetluga,RU,2022-03-29 17:01:48,57.8557,45.781,23.61,89,97,8.39,overcast clouds
342,Belmonte,BR,2022-03-29 17:01:49,-15.8631,-38.8828,84.04,58,12,8.25,few clouds
343,Amahai,ID,2022-03-29 17:01:49,-3.3333,128.9167,77.43,82,100,3.56,light rain
344,Korem,ET,2022-03-29 17:01:49,12.5058,39.5228,56.1,41,30,6.67,scattered clouds
345,Gat,IL,2022-03-29 17:01:50,31.61,34.7642,71.4,42,30,4.72,scattered clouds
346,Otane,NZ,2022-03-29 17:01:50,-39.8833,176.6333,62.01,99,100,4.03,overcast clouds
347,Bonthe,SL,2022-03-29 17:01:50,7.5264,-12.505,83.98,60,73,12.84,broken clouds
348,Hirara,JP,2022-03-29 17:01:50,24.8,125.2833,73.85,91,100,16.49,overcast clouds
349,Krasnorechenskiy,RU,2022-03-29 17:01:51,44.6265,135.3532,33.19,97,100,10.63,light snow
350,Shelburne,CA,2022-03-29 17:01:51,44.0787,-80.2041,27.9,55,56,10.13,broken clouds
351,Bengkulu,ID,2022-03-29 17:01:51,-3.8004,102.2655,76.5,82,100,5.39,overcast clouds
352,Port Hedland,AU,2022-03-29 17:01:52,-20.3167,118.5667,84.25,70,8,4.61,clear sky
353,Iquitos,PE,2022-03-29 17:01:32,-3.7481,-73.2472,72.64,96,100,2.62,overcast clouds
354,Yakeshi,CN,2022-03-29 17:01:52,49.2833,120.7333,1.35,86,3,2.91,clear sky
355,Coquimbo,CL,2022-03-29 17:01:53,-29.9533,-71.3436,67.28,64,0,6.44,clear sky
356,Celestun,MX,2022-03-29 17:01:53,20.8667,-90.4,85.24,48,0,7.61,clear sky
357,Fare,PF,2022-03-29 17:01:54,-16.7,-151.0167,82.69,69,15,17.43,few clouds
358,Sorgun,TR,2022-03-29 17:01:54,39.8101,35.186,46.74,51,100,7.78,overcast clouds
359,Bosaso,SO,2022-03-29 17:01:54,11.2842,49.1816,79.59,67,14,3.15,few clouds
360,Bentong,MY,2022-03-29 17:01:54,3.5181,101.9079,75.61,94,86,1.25,overcast clouds
361,Laguna,US,2022-03-29 17:01:55,38.421,-121.4238,61.09,93,75,1.99,mist
362,Tual,ID,2022-03-29 17:01:55,-5.6667,132.75,82.69,73,100,12.35,overcast clouds
363,Ust-Omchug,RU,2022-03-29 17:02:56,61.15,149.6333,-3.33,93,100,3.71,overcast clouds
364,Nelson Bay,AU,2022-03-29 17:02:56,-32.7167,152.15,73.99,91,100,10.98,overcast clouds
365,Pakxan,LA,2022-03-29 17:02:56,18.3778,103.6601,76.14,73,5,3.98,clear sky
366,Zhigansk,RU,2022-03-29 17:02:56,66.7697,123.3711,7.18,96,100,6.26,overcast clouds
367,Dzaoudzi,YT,2022-03-29 17:02:57,-12.7887,45.2699,82.29,83,75,8.05,broken clouds
368,Gap,FR,2022-03-29 17:02:57,44.6667,6.0,43.57,41,100,4.65,overcast clouds
369,Hailar,CN,2022-03-29 17:02:57,49.2,119.7,18.39,39,3,3.6,clear sky
370,Santa Marta,CO,2022-03-29 17:02:58,11.2408,-74.199,83.01,70,78,14.18,broken clouds
371,Rio Grande,BR,2022-03-29 17:02:58,-32.035,-52.0986,90.95,53,3,11.95,clear sky
372,Harper,LR,2022-03-29 17:02:58,4.375,-7.7169,83.71,75,63,10.47,broken clouds
373,Harwich,GB,2022-03-29 17:02:59,51.9419,1.2844,46.99,84,85,8.99,overcast clouds
374,Oktyabrskiy,RU,2022-03-29 17:02:59,54.4815,53.471,33.49,95,97,15.99,overcast clouds
375,Itsukaichi,JP,2022-03-29 17:02:59,35.7253,139.2178,50.25,73,96,0.38,overcast clouds
376,Lompoc,US,2022-03-29 17:00:59,34.6391,-120.4579,61.12,85,75,11.5,broken clouds
377,Hoquiam,US,2022-03-29 17:00:44,46.9809,-123.8893,48.99,89,100,0.0,overcast clouds
378,Westport,US,2022-03-29 17:02:59,41.1415,-73.3579,39.42,40,0,16.11,clear sky
379,Ozernovskiy,RU,2022-03-29 17:03:00,51.5,156.5167,28.94,68,100,18.43,overcast clouds
380,Inverell,AU,2022-03-29 17:03:00,-29.7833,151.1167,60.12,96,100,3.0,light rain
381,Birjand,IR,2022-03-29 17:03:00,32.8663,59.2211,50.72,29,0,5.73,clear sky
382,Cidreira,BR,2022-03-29 17:03:00,-30.1811,-50.2056,78.85,64,0,10.33,clear sky
383,Hokitika,NZ,2022-03-29 17:03:01,-42.7167,170.9667,58.82,90,100,2.55,overcast clouds
384,Sonipat,IN,2022-03-29 17:03:01,28.9833,77.0167,84.2,10,0,7.85,clear sky
385,Buluang,PH,2022-03-29 17:03:01,13.3068,123.3425,74.82,92,21,3.74,few clouds
386,Nobres,BR,2022-03-29 17:03:02,-14.7203,-56.3275,89.55,57,49,3.98,scattered clouds
387,Kuryk,KZ,2022-03-29 17:03:02,43.2,51.65,45.14,83,1,23.2,clear sky
388,Myslenice,PL,2022-03-29 17:03:02,49.8338,19.9383,54.72,78,100,3.85,overcast clouds
389,Bandarbeyla,SO,2022-03-29 17:03:03,9.4942,50.8122,79.54,78,9,17.67,light rain
390,Praia Da Vitoria,PT,2022-03-29 17:03:03,38.7333,-27.0667,61.47,93,88,15.32,overcast clouds
391,Mount Isa,AU,2022-03-29 16:59:23,-20.7333,139.5,74.97,29,2,8.05,clear sky
392,Tingi,TZ,2022-03-29 17:03:03,-11.3,35.0333,64.44,95,64,2.21,light rain
393,Padang,ID,2022-03-29 17:03:04,-0.9492,100.3543,76.06,71,12,4.59,few clouds
394,Carutapera,BR,2022-03-29 17:03:04,-1.195,-46.02,76.14,95,100,2.19,moderate rain
395,Krasnyy Chikoy,RU,2022-03-29 17:03:04,50.3643,108.7512,10.06,97,75,1.83,broken clouds
396,Damara,CF,2022-03-29 17:03:05,4.9608,18.7035,89.69,26,50,4.81,scattered clouds
397,Jibuti,DJ,2022-03-29 17:03:05,11.5,42.5,77.65,35,20,10.89,few clouds
398,Matagami,CA,2022-03-29 17:03:06,49.7502,-77.6328,17.49,79,100,9.17,overcast clouds
399,Caravelas,BR,2022-03-29 17:03:06,-17.7125,-39.2481,84.94,58,9,8.52,clear sky
400,Avera,US,2022-03-29 17:03:06,33.194,-82.5271,63.91,39,95,8.23,overcast clouds
401,Coihaique,CL,2022-03-29 17:00:05,-45.5752,-72.0662,45.21,69,94,7.38,overcast clouds
402,Payson,US,2022-03-29 17:00:28,40.0444,-111.7321,53.91,68,100,5.99,overcast clouds
403,Oranjemund,NA,2022-03-29 17:03:07,-28.55,16.4333,64.2,84,79,5.55,broken clouds
404,Waipawa,NZ,2022-03-29 17:03:08,-41.4122,175.5153,58.41,98,100,2.28,overcast clouds
405,Usinsk,RU,2022-03-29 17:03:08,65.9939,57.5281,9.05,90,98,5.64,overcast clouds
406,Kaitangata,NZ,2022-03-29 17:03:09,-46.2817,169.8464,52.81,95,56,2.01,broken clouds
407,San Pedro,PH,2022-03-29 17:03:09,14.35,121.0167,83.35,77,71,10.49,broken clouds
408,Salalah,OM,2022-03-29 17:03:10,17.0151,54.0924,81.5,38,0,3.91,clear sky
409,Nemuro,JP,2022-03-29 17:03:10,43.3236,145.575,35.04,82,14,25.68,few clouds
410,Deputatskiy,RU,2022-03-29 17:03:10,69.3,139.9,-19.93,100,98,1.61,overcast clouds
411,Marsa Matruh,EG,2022-03-29 17:04:11,31.3525,27.2453,61.41,69,28,10.71,scattered clouds
412,Isangel,VU,2022-03-29 17:04:11,-19.55,169.2667,79.03,87,100,7.52,overcast clouds
413,Amga,RU,2022-03-29 17:04:11,60.8953,131.9608,18.43,92,100,9.15,light snow
414,Dingle,PH,2022-03-29 17:04:12,10.9995,122.6711,77.52,83,86,7.81,overcast clouds
415,Walvis Bay,NA,2022-03-29 17:04:12,-22.9575,14.5053,63.09,68,20,12.88,few clouds
416,Barentu,ER,2022-03-29 17:04:13,15.1139,37.5928,85.62,20,23,13.62,few clouds
417,Seydi,TM,2022-03-29 17:04:13,39.4816,62.9137,44.47,23,0,6.49,clear sky
418,Norman Wells,CA,2022-03-29 17:04:13,65.282,-126.8329,5.13,94,100,0.67,light snow
419,Trairi,BR,2022-03-29 17:04:14,-3.2778,-39.2689,79.79,88,100,8.95,overcast clouds
420,Kailua,US,2022-03-29 17:03:13,21.4022,-157.7394,74.14,91,96,1.01,overcast clouds
421,Kemijarvi,FI,2022-03-29 17:04:14,66.7131,27.4306,24.64,82,100,13.2,overcast clouds
422,Mount Gambier,AU,2022-03-29 17:04:15,-37.8333,140.7667,57.2,65,79,7.72,broken clouds
423,Moose Factory,CA,2022-03-29 17:04:15,51.2585,-80.6094,19.38,27,0,13.8,clear sky
424,Cruzeiro Do Oeste,BR,2022-03-29 17:01:47,-23.785,-53.0733,84.58,57,3,9.08,clear sky
425,Dosso,NE,2022-03-29 17:04:15,13.049,3.1937,98.28,3,12,10.71,few clouds
426,Trojes,AL,2022-03-29 17:04:16,41.756,19.962,54.09,54,29,2.89,scattered clouds
427,Kuliyapitiya,LK,2022-03-29 17:04:16,7.4688,80.0401,83.88,94,38,3.04,scattered clouds
428,Novikovo,RU,2022-03-29 17:04:17,51.1537,37.8879,45.97,90,84,11.36,light rain
429,Ulladulla,AU,2022-03-29 17:04:17,-35.35,150.4667,67.77,95,100,9.28,light rain
430,Vermillion,US,2022-03-29 17:00:34,42.7794,-96.9292,46.71,66,100,17.76,overcast clouds
431,Gorontalo,ID,2022-03-29 17:04:17,0.5412,123.0595,74.35,94,75,2.98,broken clouds
432,Cartagena,CO,2022-03-29 17:01:51,10.3997,-75.5144,85.77,63,100,9.28,overcast clouds
433,Saint-Augustin,CA,2022-03-29 17:04:18,51.226,-58.6502,32.81,100,100,17.98,light snow
434,Paamiut,GL,2022-03-29 17:04:19,61.994,-49.6678,30.78,66,2,1.19,clear sky
435,Torit,SS,2022-03-29 17:00:17,4.4133,32.5678,82.8,48,98,2.91,overcast clouds
436,Maniitsoq,GL,2022-03-29 17:04:19,65.4167,-52.9,27.86,84,95,10.98,overcast clouds
437,Fort Frances,CA,2022-03-29 17:04:19,48.5999,-93.4003,37.62,40,100,11.5,overcast clouds
438,Manzhouli,CN,2022-03-29 17:04:20,49.6,117.4333,19.31,27,52,1.86,broken clouds
439,Ponta Delgada,PT,2022-03-29 17:04:20,37.7333,-25.6667,61.52,94,75,11.5,mist
440,Acapulco,MX,2022-03-29 17:00:20,16.8634,-99.8901,84.4,36,2,6.58,clear sky
441,Yekepa,LR,2022-03-29 17:04:21,7.5753,-8.5419,89.91,36,50,2.71,scattered clouds
442,Necochea,AR,2022-03-29 17:04:21,-38.5473,-58.7368,69.33,44,60,21.97,broken clouds
443,Sakaiminato,JP,2022-03-29 17:04:21,35.55,133.2333,51.89,77,0,7.74,clear sky
444,Kahului,US,2022-03-29 17:02:49,20.8947,-156.47,74.84,79,100,4.0,overcast clouds
445,Teberda,RU,2022-03-29 17:04:22,43.4456,41.7448,31.8,76,66,8.25,broken clouds
446,Antalaha,MG,2022-03-29 17:04:22,-14.9003,50.2788,77.02,86,5,8.55,clear sky
447,Sioux Lookout,CA,2022-03-29 17:04:22,50.1001,-91.917,31.51,87,100,9.89,overcast clouds
448,Iquique,CL,2022-03-29 17:04:23,-20.2208,-70.1431,71.53,65,1,8.48,clear sky
449,Muzhi,RU,2022-03-29 17:04:23,65.3667,64.6667,10.98,94,92,3.94,overcast clouds
450,Makakilo City,US,2022-03-29 17:04:23,21.3469,-158.0858,72.68,83,0,4.61,clear sky
451,Butzow,DE,2022-03-29 17:04:23,53.85,11.9833,46.65,62,100,10.33,overcast clouds
452,Kourou,GF,2022-03-29 17:00:06,5.1552,-52.6478,84.25,64,70,10.6,broken clouds
453,Inndyr,NO,2022-03-29 17:04:24,67.0338,14.0276,32.04,66,100,17.07,light snow
454,Puchov,SK,2022-03-29 17:04:24,49.1249,18.326,62.89,72,100,1.99,overcast clouds
455,Canoinhas,BR,2022-03-29 17:05:25,-26.1772,-50.39,83.41,39,10,3.4,clear sky
456,Koygorodok,RU,2022-03-29 17:05:25,60.445,50.9968,19.99,96,100,4.29,overcast clouds
457,Saravena,CO,2022-03-29 17:05:25,6.9538,-71.8752,81.91,67,98,4.23,overcast clouds
458,Barmer,IN,2022-03-29 17:05:26,25.75,71.3833,82.24,27,0,10.13,clear sky
459,Port Said,EG,2022-03-29 17:02:57,31.2565,32.2841,63.52,64,2,6.87,clear sky
460,Nizhneangarsk,RU,2022-03-29 17:05:26,55.7833,109.55,1.15,86,62,5.44,broken clouds
461,Komsomolskiy,UZ,2022-03-29 17:05:27,40.4272,71.7189,47.84,51,100,8.21,overcast clouds
462,Searcy,US,2022-03-29 17:05:27,35.2506,-91.7363,69.98,79,100,11.5,overcast clouds
463,Mandera,KE,2022-03-29 17:05:27,3.9366,41.867,93.92,22,40,9.01,scattered clouds
464,Chumikan,RU,2022-03-29 17:05:28,54.7183,135.315,16.25,97,99,2.55,light snow
465,Wanaka,NZ,2022-03-29 17:00:43,-44.7,169.15,54.1,88,79,1.23,broken clouds
466,Esil,KZ,2022-03-29 17:05:28,51.9556,66.4042,22.26,93,69,25.21,light snow
467,Okhotsk,RU,2022-03-29 17:05:28,59.3833,143.3,0.09,84,58,9.15,broken clouds
468,Kununurra,AU,2022-03-29 17:05:29,-15.7667,128.7333,76.98,83,71,2.3,broken clouds
469,Blind River,CA,2022-03-29 17:05:29,46.1834,-82.9582,26.4,55,21,5.57,few clouds
470,Tocopilla,CL,2022-03-29 17:05:29,-22.092,-70.1979,71.35,70,14,9.82,few clouds
471,Kirkwood,US,2022-03-29 17:05:29,38.5834,-90.4068,53.47,55,100,24.16,overcast clouds
472,Lorengau,PG,2022-03-29 17:01:19,-2.0226,147.2712,81.21,82,99,10.94,overcast clouds
473,Sorong,ID,2022-03-29 17:05:30,-0.8833,131.25,80.04,80,100,4.61,overcast clouds
474,Vao,NC,2022-03-29 17:05:30,-22.6667,167.4833,78.37,83,98,16.69,overcast clouds
475,Okha,RU,2022-03-29 17:05:31,53.5739,142.9478,27.28,96,100,21.74,snow
476,Vignola,IT,2022-03-29 17:05:31,44.483,11.0048,63.91,45,100,3.4,overcast clouds
477,Shitanjing,CN,2022-03-29 17:05:14,39.2342,106.3439,41.83,30,37,7.09,scattered clouds
478,Denpasar,ID,2022-03-29 17:05:16,-8.65,115.2167,80.26,83,20,1.14,few clouds
479,Nicoya,CR,2022-03-29 17:05:31,10.1483,-85.452,95.67,35,99,6.55,overcast clouds
480,Labuhan,ID,2022-03-29 17:05:32,-6.8844,112.2051,79.38,85,90,4.12,light rain
481,Abancay,PE,2022-03-29 17:05:32,-13.6339,-72.8814,69.67,61,84,4.0,broken clouds
482,Socorro,US,2022-03-29 17:05:33,31.6546,-106.3033,72.59,11,40,28.77,scattered clouds
483,Geraldton,AU,2022-03-29 17:05:33,-28.7667,114.6,72.01,83,99,21.85,overcast clouds
484,Boyabat,TR,2022-03-29 17:05:33,41.4689,34.7667,55.53,58,100,3.09,overcast clouds
485,Qui Nhon,VN,2022-03-29 17:01:19,13.7667,109.2333,74.89,92,74,6.87,broken clouds
486,Peniche,PT,2022-03-29 17:05:34,39.3558,-9.3811,63.28,81,25,20.09,scattered clouds
487,Marshall,US,2022-03-29 17:01:52,34.3834,-86.3333,70.3,52,0,8.05,clear sky
488,San Ramon De La Nueva Oran,AR,2022-03-29 17:00:41,-23.1322,-64.326,93.34,37,0,2.82,clear sky
489,Benghazi,LY,2022-03-29 17:05:34,32.1167,20.0667,60.21,75,28,8.68,scattered clouds
490,Marion,US,2022-03-29 17:02:57,39.7684,-86.1555,41.23,50,100,16.11,overcast clouds
491,Escanaba,US,2022-03-29 17:02:27,45.7453,-87.0646,36.25,54,94,11.23,overcast clouds
492,Akyab,MM,2022-03-29 17:05:35,20.15,92.9,78.98,86,40,3.18,scattered clouds
493,Uppsala,SE,2022-03-29 17:05:35,60.0,17.75,27.91,43,72,9.22,broken clouds
494,Slave Lake,CA,2022-03-29 17:05:35,55.2834,-114.769,38.8,67,45,5.82,scattered clouds
495,Hovd,MN,2022-03-29 17:05:36,48.0056,91.6419,29.55,38,1,3.98,clear sky
496,Leshukonskoye,RU,2022-03-29 17:05:36,64.8989,45.7622,16.95,85,69,7.78,broken clouds
497,Gardabani,GE,2022-03-29 17:05:36,41.4605,45.0928,48.29,56,7,2.37,clear sky
498,Salvador,SV,2022-03-29 17:05:37,13.8333,-88.9167,84.06,35,85,0.31,overcast clouds
499,Buala,SB,2022-03-29 17:05:37,-8.145,159.5921,79.79,82,82,3.4,broken clouds
500,Bilibino,RU,2022-03-29 17:05:37,68.0546,166.4372,-5.03,82,100,4.83,overcast clouds
501,Comal,US,2022-03-29 17:05:37,29.8169,-98.3003,76.93,65,100,8.01,overcast clouds
502,Luanda,AO,2022-03-29 17:06:38,-8.8368,13.2343,78.67,84,81,12.01,light rain
503,Shingu,JP,2022-03-29 17:06:38,33.7333,135.9833,51.87,91,37,4.74,scattered clouds
504,Garoua,CM,2022-03-29 17:06:39,9.3,13.4,94.87,6,21,1.74,few clouds
505,Fez,MA,2022-03-29 17:06:39,34.0372,-4.9998,55.65,94,75,16.11,broken clouds
506,Price,US,2022-03-29 17:06:39,39.5994,-110.8107,43.12,93,100,3.44,overcast clouds
507,Ouegoa,NC,2022-03-29 17:06:40,-20.35,164.4333,78.69,87,100,10.67,overcast clouds
508,La Maddalena,IT,2022-03-29 17:06:40,41.2142,9.4083,59.16,84,95,18.99,overcast clouds
509,Saint-Pierre,RE,2022-03-29 17:06:40,-21.3393,55.4781,76.68,91,100,24.16,overcast clouds
510,Half Moon Bay,US,2022-03-29 17:06:40,37.4636,-122.4286,58.6,86,100,10.36,mist
511,Shu,KZ,2022-03-29 17:06:41,43.5983,73.7614,37.17,51,91,6.71,overcast clouds
512,Quimper,FR,2022-03-29 17:06:41,48.0,-4.1,61.38,63,20,9.22,few clouds
513,Pemangkat,ID,2022-03-29 17:06:41,1.1667,108.9667,79.81,81,99,2.8,overcast clouds
514,Naze,JP,2022-03-29 17:06:42,28.3667,129.4833,65.12,87,90,17.36,overcast clouds
515,Alta Floresta,BR,2022-03-29 17:06:42,-9.8756,-56.0861,80.33,88,100,3.49,overcast clouds
516,Paris,FR,2022-03-29 17:03:57,48.8534,2.3488,57.78,81,100,8.05,overcast clouds
517,Ewa Beach,US,2022-03-29 17:06:42,21.3156,-158.0072,74.08,83,0,4.61,clear sky
518,Khadro,PK,2022-03-29 17:06:43,26.1472,68.7176,80.64,17,0,10.45,clear sky
519,Bozova,TR,2022-03-29 17:06:43,37.3625,38.5267,56.32,55,100,3.67,overcast clouds
520,Hami,CN,2022-03-29 17:06:43,42.8,93.45,49.64,24,89,14.54,overcast clouds
521,Puerto Ayacucho,VE,2022-03-29 17:06:44,5.6639,-67.6236,84.11,65,99,4.36,overcast clouds
522,Stromness,GB,2022-03-29 17:06:44,58.965,-3.296,40.87,75,99,10.0,overcast clouds
523,Bundaberg,AU,2022-03-29 17:06:44,-24.85,152.35,69.22,83,9,9.22,clear sky
524,Eureka,US,2022-03-29 17:06:44,40.8021,-124.1637,56.68,76,85,3.0,overcast clouds
525,Leh,IN,2022-03-29 17:06:45,34.1667,77.5833,27.75,49,0,2.37,clear sky
526,Fukue,JP,2022-03-29 17:06:45,32.6881,128.8419,60.49,89,95,12.84,overcast clouds
527,Kholtoson,RU,2022-03-29 17:06:45,50.2981,103.3097,7.56,99,91,2.19,overcast clouds
528,Churapcha,RU,2022-03-29 17:06:46,62.0025,132.4325,9.28,97,100,5.66,overcast clouds
529,Tiznit,MA,2022-03-29 17:06:46,29.5833,-9.5,58.95,81,91,12.01,overcast clouds
530,Muroto,JP,2022-03-29 17:06:46,33.2833,134.15,58.68,82,93,5.48,overcast clouds
531,Margate,GB,2022-03-29 17:06:46,51.3813,1.3862,47.1,86,95,4.0,overcast clouds
532,Sun Valley,US,2022-03-29 17:06:47,39.5963,-119.776,50.22,66,75,17.27,broken clouds
533,Porto Velho,BR,2022-03-29 17:02:07,-8.7619,-63.9039,87.85,66,40,5.75,scattered clouds
534,Fredericksburg,US,2022-03-29 17:02:55,38.3032,-77.4605,42.93,33,0,11.5,clear sky
535,Luan,CH,2022-03-29 17:06:47,46.3592,6.9759,52.34,43,100,1.92,overcast clouds
536,College,US,2022-03-29 17:06:48,64.8569,-147.8028,28.35,69,100,6.91,overcast clouds
537,Motala,SE,2022-03-29 17:06:48,58.5371,15.0365,35.37,38,98,11.12,overcast clouds
538,Villanueva,HN,2022-03-29 17:06:48,15.3167,-88.0,88.03,54,75,2.3,broken clouds
539,Faanui,PF,2022-03-29 17:06:48,-16.4833,-151.75,81.75,75,23,17.87,light rain
540,Boguchany,RU,2022-03-29 17:06:49,58.3814,97.4531,6.13,98,35,3.18,scattered clouds
541,Andenes,NO,2022-03-29 17:06:49,69.3143,16.1194,29.93,86,100,18.41,light snow
542,Zhireken,RU,2022-03-29 17:06:50,52.8249,117.3076,2.12,93,61,2.82,broken clouds
543,Nizhniy Kuranakh,RU,2022-03-29 17:06:50,58.8353,125.4869,2.55,98,94,3.18,overcast clouds
544,Todos Santos,MX,2022-03-29 17:06:50,23.45,-110.2167,67.66,73,77,9.08,broken clouds
545,Santa Pola,ES,2022-03-29 17:06:51,38.1917,-0.5658,67.15,70,75,4.61,broken clouds
546,Mosetse,BW,2022-03-29 17:06:51,-20.75,26.65,79.97,32,68,9.35,broken clouds
547,Mujiayingzi,CN,2022-03-29 17:06:51,42.1167,118.7833,32.79,83,96,8.52,light snow
548,Berezovyy,RU,2022-03-29 17:06:52,51.6667,135.7,18.21,79,50,8.75,scattered clouds
549,Nouadhibou,MR,2022-03-29 17:06:52,20.931,-17.0347,65.53,84,0,24.65,clear sky
550,Muisne,EC,2022-03-29 17:07:52,0.6,-80.0333,79.92,82,96,5.59,overcast clouds
551,Kieta,PG,2022-03-29 17:07:52,-6.2167,155.6333,78.85,84,66,4.12,broken clouds
552,Coffs Harbour,AU,2022-03-29 17:07:53,-30.3,153.1333,69.76,94,75,24.16,heavy intensity rain
553,Lata,PT,2022-03-29 17:07:53,40.1629,-8.3327,59.7,79,85,8.48,overcast clouds
554,Sinnamary,GF,2022-03-29 17:07:53,5.3833,-52.95,81.28,68,66,11.99,broken clouds
555,Qiongshan,CN,2022-03-29 17:07:54,20.0058,110.3542,72.77,93,90,11.81,overcast clouds
556,Am Timan,TD,2022-03-29 17:07:54,11.0297,20.2827,92.57,7,14,2.53,few clouds
557,Excelsior Springs,US,2022-03-29 17:03:40,39.3392,-94.2261,58.95,45,100,12.66,overcast clouds
558,Cabra,ES,2022-03-29 17:07:54,37.4725,-4.4421,62.65,67,96,3.0,overcast clouds
559,Apex,US,2022-03-29 17:06:25,35.7327,-78.8503,46.49,36,100,4.61,overcast clouds
560,Kumluca,TR,2022-03-29 17:07:54,36.3703,30.2869,57.9,54,55,2.13,broken clouds
561,Oranjestad,AW,2022-03-29 17:07:55,12.524,-70.027,85.95,58,20,24.16,few clouds
562,Wakkanai,JP,2022-03-29 17:07:55,45.4094,141.6739,41.16,76,93,39.95,moderate rain
563,Puerto Lempira,HN,2022-03-29 17:07:55,15.2667,-83.7667,87.94,66,40,13.8,scattered clouds
564,Seoul,KR,2022-03-29 17:03:24,37.5683,126.9778,44.04,52,83,2.13,broken clouds
565,Ileza,RU,2022-03-29 17:07:56,61.0533,43.9002,11.39,95,100,2.15,overcast clouds
566,Shebunino,RU,2022-03-29 17:07:56,46.4339,141.8603,40.17,82,100,30.2,overcast clouds
567,Ochsenfurt,DE,2022-03-29 17:07:56,49.6643,10.0623,59.85,67,100,3.18,overcast clouds
568,Kargasok,RU,2022-03-29 17:07:57,59.0556,80.8572,26.15,96,100,8.19,overcast clouds
569,Vanimo,PG,2022-03-29 17:07:57,-2.6741,141.3028,76.39,93,100,8.77,overcast clouds
570,Gilgit,PK,2022-03-29 17:07:57,35.9221,74.3087,61.21,45,70,1.72,broken clouds
571,Nema,RU,2022-03-29 17:07:58,57.5067,50.5011,25.57,93,100,9.8,snow
572,Lashio,MM,2022-03-29 17:07:58,22.9333,97.75,69.24,64,100,1.52,overcast clouds
573,Asyut,EG,2022-03-29 17:07:58,27.181,31.1837,74.01,16,0,9.08,clear sky
574,Fallon,US,2022-03-29 17:07:59,39.4735,-118.7774,48.92,80,83,12.37,broken clouds
575,Cayenne,GF,2022-03-29 17:07:12,4.9333,-52.3333,84.24,16,75,13.8,broken clouds
576,Mayskiy,RU,2022-03-29 17:07:59,47.6931,40.1025,45.81,71,97,16.51,overcast clouds
577,Malindi,KE,2022-03-29 17:07:59,-3.2175,40.1191,81.7,78,8,11.79,clear sky
578,Xambioa,BR,2022-03-29 17:07:59,-6.4111,-48.5364,74.55,95,100,3.49,overcast clouds
579,Berlevag,NO,2022-03-29 17:03:12,70.8578,29.0864,28.35,80,75,27.63,broken clouds
580,Verkhnevilyuysk,RU,2022-03-29 17:08:02,63.4453,120.3167,4.62,98,96,4.56,overcast clouds
581,Valdivia,CL,2022-03-29 17:08:03,-39.8142,-73.2459,57.29,33,40,4.85,scattered clouds
582,La Palma,US,2022-03-29 17:08:03,33.8464,-118.0467,63.21,81,100,5.75,overcast clouds
583,Port Lincoln,AU,2022-03-29 17:06:29,-34.7333,135.8667,62.65,75,99,14.43,overcast clouds
584,Wahiawa,US,2022-03-29 17:08:04,21.5028,-158.0236,70.86,85,0,0.0,clear sky
585,Golyshmanovo,RU,2022-03-29 17:08:04,56.3979,68.3728,31.77,98,100,11.65,light snow
586,Lyantonde,UG,2022-03-29 17:08:04,-0.4031,31.1572,66.18,92,70,4.34,light rain
587,Anloga,GH,2022-03-29 17:08:05,5.7947,0.8973,84.45,77,94,15.68,overcast clouds
588,Formosa,AR,2022-03-29 17:08:06,-26.1775,-58.1781,93.18,52,40,12.66,scattered clouds
589,Camacha,PT,2022-03-29 17:08:06,33.0833,-16.3333,62.02,72,75,19.57,broken clouds
590,Boralday,KZ,2022-03-29 17:08:07,43.3578,76.8594,37.26,75,100,11.18,mist
591,Kalawit,PH,2022-03-29 17:08:07,8.0667,122.5167,78.17,85,100,3.87,overcast clouds
592,Chincholi,IN,2022-03-29 17:07:11,17.4667,77.4333,90.37,12,1,4.79,clear sky
593,Nago,JP,2022-03-29 17:08:07,26.5881,127.9761,69.46,87,100,12.24,overcast clouds
594,Baherden,TM,2022-03-29 17:08:08,38.4362,57.4316,50.9,42,0,13.89,clear sky
595,Susuman,RU,2022-03-29 17:09:08,62.7833,148.1667,-22.65,89,82,2.08,broken clouds
596,Batticaloa,LK,2022-03-29 17:09:08,7.7102,81.6924,80.51,82,0,8.75,clear sky
597,Kirksville,US,2022-03-29 17:09:09,40.1948,-92.5833,49.05,51,100,17.27,overcast clouds
598,Uusikaupunki,FI,2022-03-29 17:09:09,60.8004,21.4084,25.68,62,28,10.85,scattered clouds
599,Ginir,ET,2022-03-29 17:09:09,7.1333,40.7,64.74,30,94,2.62,overcast clouds
600,Panorama,GR,2022-03-29 17:09:10,40.5878,23.0315,56.91,77,20,8.05,few clouds
601,Huaraz,PE,2022-03-29 17:09:10,-9.5333,-77.5333,64.27,56,86,3.58,light rain
602,Shenzhen,CN,2022-03-29 17:09:10,22.5455,114.0683,69.84,96,98,4.56,overcast clouds
603,Corpus Christi,US,2022-03-29 17:08:13,27.8006,-97.3964,80.17,76,100,35.68,overcast clouds
604,Katsuura,JP,2022-03-29 17:09:12,35.1333,140.3,51.82,84,100,13.94,overcast clouds
605,Klichka,RU,2022-03-29 17:09:12,50.4457,117.996,16.81,42,23,3.4,few clouds
606,Vitre,FR,2022-03-29 17:09:13,48.1178,-1.2058,60.62,79,63,8.95,broken clouds
607,Mlonggo,ID,2022-03-29 17:09:13,-6.5333,110.7,79.86,81,62,4.07,broken clouds
608,Gizo,SB,2022-03-29 17:09:13,-8.103,156.8419,82.67,76,99,5.55,light rain
609,Zhangjiakou,CN,2022-03-29 17:09:14,40.81,114.8794,41.92,70,67,3.38,broken clouds
610,Shimoda,JP,2022-03-29 17:09:14,34.6667,138.95,49.1,94,100,8.21,overcast clouds
611,Tokur,RU,2022-03-29 17:09:15,53.1333,132.9,6.13,99,100,2.57,overcast clouds
612,Chara,RU,2022-03-29 17:09:15,56.9064,118.2631,0.41,73,63,3.18,broken clouds
613,Serebryansk,KZ,2022-03-29 17:09:16,49.6925,83.2892,24.51,92,88,5.77,overcast clouds
614,Darab,IR,2022-03-29 17:09:16,28.7519,54.5444,67.05,10,0,3.18,clear sky
615,Tremedal,BR,2022-03-29 17:09:17,-14.9758,-41.4108,91.65,30,31,7.56,scattered clouds
616,Coyah,GN,2022-03-29 17:09:17,9.75,-13.4167,88.45,33,83,11.3,broken clouds
617,Mustang,US,2022-03-29 17:09:18,35.3842,-97.7245,73.15,61,75,31.07,broken clouds
618,Te Anau,NZ,2022-03-29 17:09:18,-45.4167,167.7167,52.0,93,17,1.19,few clouds
619,Grand-Santi,GF,2022-03-29 17:09:18,4.25,-54.3833,85.55,59,86,4.56,overcast clouds
620,Riviere-Au-Renard,CA,2022-03-29 17:09:19,48.9957,-64.3971,32.29,93,100,30.87,snow
621,Abadan,IR,2022-03-29 17:09:19,30.3392,48.3043,73.62,12,0,12.68,clear sky
622,Paralimni,CY,2022-03-29 17:09:19,35.0375,33.9833,61.68,79,100,11.01,overcast clouds
623,Yumen,CN,2022-03-29 17:09:20,40.2833,97.2,41.61,24,65,4.61,broken clouds
624,Riverton,US,2022-03-29 17:09:20,40.5219,-111.9391,55.56,61,75,5.01,broken clouds
625,Kinango,KE,2022-03-29 17:09:20,-4.1372,39.3153,78.13,83,90,5.88,light rain
626,Wladyslawowo,PL,2022-03-29 17:09:21,54.7909,18.4009,40.01,60,100,8.63,overcast clouds
627,Awbari,LY,2022-03-29 17:09:21,26.5921,12.7805,84.85,8,9,9.62,clear sky
628,Haines Junction,CA,2022-03-29 17:09:22,60.7522,-137.5108,23.04,92,89,0.54,overcast clouds
629,Olinda,BR,2022-03-29 17:09:22,-8.0089,-34.8553,85.73,66,40,10.36,scattered clouds
630,Canutama,BR,2022-03-29 17:09:23,-6.5339,-64.3831,74.07,99,100,3.04,overcast clouds
631,Nongstoin,IN,2022-03-29 17:09:23,25.5167,91.2667,64.09,62,71,3.18,broken clouds
632,Coari,BR,2022-03-29 17:09:24,-4.085,-63.1414,79.79,92,100,3.53,light rain
633,San Juan,AR,2022-03-29 17:09:24,-31.5375,-68.5364,85.48,24,0,19.77,clear sky
634,Alyangula,AU,2022-03-29 17:09:25,-13.8483,136.4192,80.2,62,20,6.4,few clouds
635,Arlit,NE,2022-03-29 17:09:25,18.7369,7.3853,95.02,2,7,12.41,clear sky
636,Dehui,CN,2022-03-29 17:09:25,44.5333,125.7,30.78,47,100,8.63,overcast clouds
637,Husavik,IS,2022-03-29 17:09:26,66.0449,-17.3389,31.33,58,22,6.55,few clouds
638,Houma,US,2022-03-29 17:09:26,29.5958,-90.7195,80.6,72,26,10.0,scattered clouds
639,Sechura,PE,2022-03-29 17:09:26,-5.5569,-80.8222,83.23,55,46,7.38,scattered clouds
640,Miquelon,PM,2022-03-29 17:10:27,47.0975,-56.3814,33.67,97,95,12.33,light snow
641,Poceirao,PT,2022-03-29 17:10:27,38.831,-8.7937,67.23,65,77,14.83,broken clouds
642,Waingapu,ID,2022-03-29 17:10:27,-9.6567,120.2641,78.03,82,100,3.96,overcast clouds
643,Srednekolymsk,RU,2022-03-29 17:10:28,67.45,153.6833,-4.0,90,100,7.63,overcast clouds
644,Pisco,PE,2022-03-29 17:10:28,-13.7,-76.2167,73.45,64,0,20.71,clear sky
645,Kosh-Agach,RU,2022-03-29 17:10:28,50.0,88.6667,16.95,59,55,4.54,broken clouds
646,High Prairie,CA,2022-03-29 17:10:29,55.4334,-116.4858,36.25,82,76,5.37,broken clouds
647,Moussoro,TD,2022-03-29 17:10:29,13.6408,16.4901,87.62,5,21,10.45,few clouds
648,Roxana,CR,2022-03-29 17:10:29,10.2753,-83.7513,91.04,47,86,7.02,overcast clouds
649,Mahibadhoo,MV,2022-03-29 17:10:30,3.7833,72.9667,82.62,68,0,2.71,clear sky
650,Portland,US,2022-03-29 17:06:17,45.5234,-122.6762,52.9,85,100,1.01,overcast clouds
651,Barsovo,RU,2022-03-29 17:10:30,61.1667,73.1667,32.13,91,100,12.75,overcast clouds
652,Rafaela,AR,2022-03-29 17:10:30,-31.2503,-61.4867,90.0,41,3,4.0,clear sky
653,Pouembout,NC,2022-03-29 17:10:30,-21.1333,164.9,77.2,92,100,5.46,overcast clouds
654,Taltal,CL,2022-03-29 17:10:31,-25.4,-70.4833,67.89,70,8,7.25,clear sky
655,Tevriz,RU,2022-03-29 17:10:31,57.509,72.4042,30.96,94,100,11.7,overcast clouds
656,Coahuayana,MX,2022-03-29 17:10:31,18.7333,-103.6833,87.42,26,32,5.68,scattered clouds
657,Kyakhta,RU,2022-03-29 17:10:32,50.3508,106.4494,18.23,68,13,3.85,few clouds
658,Muncar,ID,2022-03-29 17:10:32,-8.4333,114.3333,75.88,92,75,2.66,broken clouds
659,Pudozh,RU,2022-03-29 17:10:33,61.8099,36.5345,12.47,94,65,5.12,broken clouds
660,Manzini,SZ,2022-03-29 17:10:33,-26.25,31.5,69.66,69,0,4.23,clear sky
661,Prince Rupert,CA,2022-03-29 17:10:33,54.3161,-130.3201,48.29,43,100,19.57,light rain
662,Havelock,US,2022-03-29 17:07:24,34.8791,-76.9013,49.98,38,56,1.99,broken clouds
663,Batsfjord,NO,2022-03-29 17:10:34,70.6345,29.7185,28.33,93,75,28.77,light snow
664,Buta,CD,2022-03-29 17:10:34,2.7858,24.73,69.57,99,100,4.92,moderate rain
665,Samarai,PG,2022-03-29 17:10:34,-10.6167,150.6667,80.98,81,92,11.03,overcast clouds
666,Rampur,IN,2022-03-29 17:10:35,28.8167,79.0333,79.63,8,0,3.53,clear sky
667,Ashington,GB,2022-03-29 17:10:35,50.9331,-0.3909,54.9,78,40,10.36,haze
668,Livingston,GB,2022-03-29 17:10:35,55.9029,-3.5226,48.13,92,75,10.36,broken clouds
